110107,000003,$GPRMC,000000,A,3000.3706,N,14455.5017,W,014.8,268.4,070111,012.8,E*6F
110107,000008,$GPRMC,000005,A,3000.3665,N,14455.5242,W,014.1,255.8,070111,012.8,E*67
110107,000013,$GPRMC,000010,A,3000.3643,N,14455.5475,W,014.5,262.5,070111,012.8,E*68
110107,000018,$GPRMC,000015,A,3000.3609,N,14455.5704,W,014.4,262.4,070111,012.8,E*66
110107,000023,$GPRMC,000020,A,3000.3572,N,14455.5927,W,014.6,258.4,070111,012.8,E*6B
110107,000028,$GPRMC,000025,A,3000.3552,N,14455.6159,W,014.5,260.8,070111,012.8,E*6A
110107,000033,$GPRMC,000030,A,3000.3513,N,14455.6387,W,015.0,270.7,070111,012.8,E*60
110107,000038,$GPRMC,000035,A,3000.3489,N,14455.6618,W,013.9,256.3,070111,012.8,E*6B
110107,000043,$GPRMC,000040,A,3000.3462,N,14455.6842,W,015.0,265.2,070111,012.8,E*63
110107,000048,$GPRMC,000045,A,3000.3432,N,14455.7070,W,014.1,264.3,070111,012.8,E*6B
110107,000053,$GPRMC,000050,A,3000.3404,N,14455.7291,W,014.1,255.3,070111,012.8,E*65
110107,000058,$GPRMC,000055,A,3000.3386,N,14455.7516,W,014.7,270.2,070111,012.8,E*65
110107,000103,$GPRMC,000100,A,3000.3345,N,14455.7739,W,014.0,259.4,070111,012.8,E*6E
110107,000108,$GPRMC,000105,A,3000.3315,N,14455.7964,W,014.2,260.2,070111,012.8,E*66
110107,000113,$GPRMC,000110,A,3000.3285,N,14455.8188,W,014.2,259.6,070111,012.8,E*61
110107,000118,$GPRMC,000115,A,3000.3252,N,14455.8411,W,014.2,256.9,070111,012.8,E*6B
110107,000123,$GPRMC,000120,A,3000.3208,N,14455.8633,W,014.5,266.6,070111,012.8,E*6B
110107,000128,$GPRMC,000125,A,3000.3187,N,14455.8860,W,013.7,257.6,070111,012.8,E*65
110107,000133,$GPRMC,000130,A,3000.3142,N,14455.9078,W,014.4,258.7,070111,012.8,E*62
110107,000138,$GPRMC,000135,A,3000.3113,N,14455.9306,W,014.7,266.8,070111,012.8,E*68
110107,000143,$GPRMC,000140,A,3000.3075,N,14455.9529,W,014.2,253.4,070111,012.8,E*6F
110107,000148,$GPRMC,000145,A,3000.3041,N,14455.9755,W,014.7,264.6,070111,012.8,E*67
110107,000153,$GPRMC,000150,A,3000.3011,N,14455.9987,W,014.3,256.6,070111,012.8,E*62
110107,000158,$GPRMC,000155,A,3000.2966,N,14456.0212,W,014.5,259.5,070111,012.8,E*68
110107,000203,$GPRMC,000200,A,3000.2941,N,14456.0443,W,014.6,262.5,070111,012.8,E*67
110107,000208,$GPRMC,000205,A,3000.2892,N,14456.0670,W,014.7,257.8,070111,012.8,E*65
110107,000213,$GPRMC,000210,A,3000.2873,N,14456.0907,W,014.6,262.5,070111,012.8,E*6B
110107,000218,$GPRMC,000215,A,3000.2832,N,14456.1142,W,014.9,264.5,070111,012.8,E*6A
110107,000223,$GPRMC,000220,A,3000.2802,N,14456.1378,W,014.8,259.9,070111,012.8,E*67
110107,000228,$GPRMC,000225,A,3000.2770,N,14456.1613,W,014.9,261.6,070111,012.8,E*65
110107,000233,$GPRMC,000230,A,3000.2738,N,14456.1852,W,015.3,259.9,070111,012.8,E*69
110107,000238,$GPRMC,000235,A,3000.2708,N,14456.2092,W,015.5,267.5,070111,012.8,E*6F
110107,000243,$GPRMC,000240,A,3000.2674,N,14456.2327,W,014.5,254.6,070111,012.8,E*68
110107,000248,$GPRMC,000245,A,3000.2644,N,14456.2561,W,015.2,264.8,070111,012.8,E*61
110107,000253,$GPRMC,000250,A,3000.2619,N,14456.2794,W,015.1,258.6,070111,012.8,E*67
110107,000258,$GPRMC,000255,A,3000.2586,N,14456.3026,W,014.6,257.1,070111,012.8,E*66
110107,000303,$GPRMC,000300,A,3000.2563,N,14456.3261,W,015.1,266.3,070111,012.8,E*6B
110107,000308,$GPRMC,000305,A,3000.2533,N,14456.3496,W,015.4,268.7,070111,012.8,E*6A
110107,000313,$GPRMC,000310,A,3000.2511,N,14456.3735,W,015.1,265.2,070111,012.8,E*69
110107,000318,$GPRMC,000315,A,3000.2489,N,14456.3977,W,014.9,261.4,070111,012.8,E*6F
110107,000323,$GPRMC,000320,A,3000.2462,N,14456.4206,W,014.7,261.0,070111,012.8,E*6C
110107,000328,$GPRMC,000325,A,3000.2436,N,14456.4436,W,015.2,270.5,070111,012.8,E*6C
110107,000333,$GPRMC,000330,A,3000.2413,N,14456.4671,W,014.8,259.8,070111,012.8,E*63
110107,000338,$GPRMC,000335,A,3000.2384,N,14456.4902,W,014.8,262.0,070111,012.8,E*64
110107,000343,$GPRMC,000340,A,3000.2364,N,14456.5143,W,015.4,272.1,070111,012.8,E*69
110107,000348,$GPRMC,000345,A,3000.2347,N,14456.5377,W,014.6,256.5,070111,012.8,E*69
110107,000353,$GPRMC,000350,A,3000.2321,N,14456.5609,W,014.7,266.2,070111,012.8,E*64
110107,000358,$GPRMC,000355,A,3000.2306,N,14456.5840,W,014.5,268.0,070111,012.8,E*69
110107,000403,$GPRMC,000400,A,3000.2286,N,14456.6072,W,014.6,262.5,070111,012.8,E*61
110107,000408,$GPRMC,000405,A,3000.2270,N,14456.6311,W,014.8,267.7,070111,012.8,E*62
110107,000413,$GPRMC,000410,A,3000.2253,N,14456.6549,W,014.8,263.7,070111,012.8,E*68
110107,000418,$GPRMC,000415,A,3000.2235,N,14456.6788,W,014.9,262.7,070111,012.8,E*62
110107,000423,$GPRMC,000420,A,3000.2224,N,14456.7027,W,014.6,262.4,070111,012.8,E*6B
110107,000428,$GPRMC,000425,A,3000.2203,N,14456.7263,W,015.0,262.5,070111,012.8,E*6F
110107,000433,$GPRMC,000430,A,3000.2173,N,14456.7494,W,014.8,268.8,070111,012.8,E*6F
110107,000438,$GPRMC,000435,A,3000.2168,N,14456.7734,W,015.0,260.5,070111,012.8,E*65
110107,000443,$GPRMC,000440,A,3000.2149,N,14456.7967,W,015.0,263.7,070111,012.8,E*6D
110107,000448,$GPRMC,000445,A,3000.2122,N,14456.8203,W,015.3,269.6,070111,012.8,E*6B
110107,000453,$GPRMC,000450,A,3000.2122,N,14456.8439,W,014.4,259.4,070111,012.8,E*67
110107,000458,$GPRMC,000455,A,3000.2086,N,14456.8665,W,015.2,270.8,070111,012.8,E*66
110107,000503,$GPRMC,000500,A,3000.2079,N,14456.8902,W,014.5,265.6,070111,012.8,E*65
110107,000508,$GPRMC,000505,A,3000.2059,N,14456.9134,W,014.5,264.5,070111,012.8,E*6C
110107,000513,$GPRMC,000510,A,3000.2047,N,14456.9372,W,014.8,265.0,070111,012.8,E*6E
110107,000518,$GPRMC,000515,A,3000.2034,N,14456.9611,W,014.8,265.0,070111,012.8,E*6F
110107,000523,$GPRMC,000520,A,3000.2018,N,14456.9851,W,015.5,273.4,070111,012.8,E*62
110107,000528,$GPRMC,000525,A,3000.2011,N,14457.0088,W,014.8,256.9,070111,012.8,E*6C
110107,000533,$GPRMC,000530,A,3000.1992,N,14457.0326,W,015.9,276.2,070111,012.8,E*67
110107,000538,$GPRMC,000535,A,3000.2000,N,14457.0568,W,015.0,256.4,070111,012.8,E*62
110107,000543,$GPRMC,000540,A,3000.1980,N,14457.0807,W,015.7,274.0,070111,012.8,E*65
110107,000548,$GPRMC,000545,A,3000.1992,N,14457.1051,W,015.2,266.7,070111,012.8,E*68
110107,000553,$GPRMC,000550,A,3000.1967,N,14457.1287,W,015.2,268.8,070111,012.8,E*6E
110107,000558,$GPRMC,000555,A,3000.1969,N,14457.1534,W,015.8,269.7,070111,012.8,E*6E
110107,000603,$GPRMC,000600,A,3000.1961,N,14457.1780,W,015.6,264.5,070111,012.8,E*69
110107,000608,$GPRMC,000605,A,3000.1947,N,14457.2023,W,015.9,273.0,070111,012.8,E*69
110107,000613,$GPRMC,000610,A,3000.1953,N,14457.2275,W,015.6,265.6,070111,012.8,E*67
110107,000618,$GPRMC,000615,A,3000.1938,N,14457.2520,W,015.4,267.8,070111,012.8,E*66
110107,000623,$GPRMC,000620,A,3000.1935,N,14457.2767,W,016.0,273.9,070111,012.8,E*6F
110107,000628,$GPRMC,000625,A,3000.1927,N,14457.3012,W,015.1,267.5,070111,012.8,E*66
110107,000633,$GPRMC,000630,A,3000.1923,N,14457.3263,W,015.6,272.7,070111,012.8,E*63
110107,000638,$GPRMC,000635,A,3000.1923,N,14457.3509,W,014.6,259.0,070111,012.8,E*62
110107,000643,$GPRMC,000640,A,3000.1916,N,14457.3750,W,015.6,274.0,070111,012.8,E*66
110107,000648,$GPRMC,000645,A,3000.1921,N,14457.3994,W,014.5,265.5,070111,012.8,E*66
110107,000653,$GPRMC,000650,A,3000.1909,N,14457.4232,W,015.6,270.3,070111,012.8,E*68
110107,000658,$GPRMC,000655,A,3000.1915,N,14457.4481,W,015.3,270.3,070111,012.8,E*6B
110107,000703,$GPRMC,000700,A,3000.1902,N,14457.4715,W,014.5,264.7,070111,012.8,E*64
110107,000708,$GPRMC,000705,A,3000.1903,N,14457.4963,W,015.5,272.8,070111,012.8,E*66
110107,000713,$GPRMC,000710,A,3000.1883,N,14457.5200,W,014.3,262.2,070111,012.8,E*68
110107,000718,$GPRMC,000715,A,3000.1896,N,14457.5440,W,015.2,270.1,070111,012.8,E*6B
110107,000723,$GPRMC,000720,A,3000.1878,N,14457.5680,W,015.5,270.8,070111,012.8,E*6D
110107,000728,$GPRMC,000725,A,3000.1882,N,14457.5919,W,014.8,266.5,070111,012.8,E*64
110107,000733,$GPRMC,000730,A,3000.1879,N,14457.6153,W,014.6,264.5,070111,012.8,E*6D
110107,000738,$GPRMC,000735,A,3000.1866,N,14457.6388,W,015.3,270.8,070111,012.8,E*6E
110107,000743,$GPRMC,000740,A,3000.1866,N,14457.6622,W,014.6,270.5,070111,012.8,E*60
110107,000748,$GPRMC,000745,A,3000.1849,N,14457.6848,W,014.5,264.0,070111,012.8,E*69
110107,000753,$GPRMC,000750,A,3000.1849,N,14457.7082,W,014.5,268.1,070111,012.8,E*6F
110107,000758,$GPRMC,000755,A,3000.1842,N,14457.7311,W,014.6,268.0,070111,012.8,E*6A
110107,000803,$GPRMC,000800,A,3000.1837,N,14457.7545,W,014.5,263.5,070111,012.8,E*6D
110107,000808,$GPRMC,000805,A,3000.1826,N,14457.7784,W,015.1,273.1,070111,012.8,E*67
110107,000813,$GPRMC,000810,A,3000.1819,N,14457.8017,W,014.6,261.9,070111,012.8,E*60
110107,000818,$GPRMC,000815,A,3000.1806,N,14457.8255,W,014.8,269.6,070111,012.8,E*66
110107,000823,$GPRMC,000820,A,3000.1789,N,14457.8486,W,014.9,269.0,070111,012.8,E*67
110107,000828,$GPRMC,000825,A,3000.1789,N,14457.8728,W,015.1,262.9,070111,012.8,E*6E
110107,000833,$GPRMC,000830,A,3000.1776,N,14457.8967,W,014.7,269.8,070111,012.8,E*62
110107,000838,$GPRMC,000835,A,3000.1770,N,14457.9199,W,015.1,268.3,070111,012.8,E*64
110107,000843,$GPRMC,000840,A,3000.1772,N,14457.9442,W,014.5,261.0,070111,012.8,E*68
110107,000848,$GPRMC,000845,A,3000.1747,N,14457.9671,W,015.1,271.0,070111,012.8,E*6D
110107,000853,$GPRMC,000850,A,3000.1756,N,14457.9912,W,014.9,265.2,070111,012.8,E*6D
110107,000858,$GPRMC,000855,A,3000.1743,N,14458.0146,W,014.8,265.1,070111,012.8,E*61
110107,000903,$GPRMC,000900,A,3000.1737,N,14458.0388,W,015.7,274.9,070111,012.8,E*65
110107,000908,$GPRMC,000905,A,3000.1747,N,14458.0631,W,014.8,265.9,070111,012.8,E*6E
110107,000913,$GPRMC,000910,A,3000.1721,N,14458.0866,W,015.7,275.9,070111,012.8,E*69
110107,000918,$GPRMC,000915,A,3000.1752,N,14458.1109,W,015.3,263.8,070111,012.8,E*6B
110107,000923,$GPRMC,000920,A,3000.1737,N,14458.1352,W,016.0,278.2,070111,012.8,E*62
110107,000928,$GPRMC,000925,A,3000.1749,N,14458.1590,W,014.6,265.2,070111,012.8,E*6E
110107,000933,$GPRMC,000930,A,3000.1746,N,14458.1825,W,014.9,271.3,070111,012.8,E*6D
110107,000938,$GPRMC,000935,A,3000.1748,N,14458.2066,W,015.1,271.2,070111,012.8,E*62
110107,000943,$GPRMC,000940,A,3000.1748,N,14458.2303,W,014.8,270.7,070111,012.8,E*6C
110107,000948,$GPRMC,000945,A,3000.1751,N,14458.2542,W,015.2,269.0,070111,012.8,E*66
110107,000953,$GPRMC,000950,A,3000.1751,N,14458.2786,W,014.7,269.4,070111,012.8,E*68
110107,000958,$GPRMC,000955,A,3000.1745,N,14458.3021,W,014.8,268.8,070111,012.8,E*61
110107,001003,$GPRMC,001000,A,3000.1744,N,14458.3262,W,015.0,271.3,070111,012.8,E*67
110107,001008,$GPRMC,001005,A,3000.1730,N,14458.3495,W,014.9,269.2,070111,012.8,E*6F
110107,001013,$GPRMC,001010,A,3000.1742,N,14458.3734,W,014.5,266.0,070111,012.8,E*67
110107,001018,$GPRMC,001015,A,3000.1721,N,14458.3971,W,015.3,269.3,070111,012.8,E*63
110107,001023,$GPRMC,001020,A,3000.1719,N,14458.4198,W,013.9,266.2,070111,012.8,E*64
110107,001028,$GPRMC,001025,A,3000.1711,N,14458.4434,W,015.5,274.8,070111,012.8,E*69
110107,001033,$GPRMC,001030,A,3000.1691,N,14458.4661,W,013.9,254.9,070111,012.8,E*6F
110107,001038,$GPRMC,001035,A,3000.1701,N,14458.4904,W,015.2,275.5,070111,012.8,E*6C
110107,001043,$GPRMC,001040,A,3000.1691,N,14458.5136,W,014.5,262.5,070111,012.8,E*6E
110107,001048,$GPRMC,001045,A,3000.1688,N,14458.5371,W,015.4,274.9,070111,012.8,E*69
110107,001053,$GPRMC,001050,A,3000.1677,N,14458.5607,W,015.0,271.3,070111,012.8,E*62
110107,001058,$GPRMC,001055,A,3000.1688,N,14458.5844,W,014.3,260.2,070111,012.8,E*6D
110107,001103,$GPRMC,001100,A,3000.1683,N,14458.6080,W,015.0,276.2,070111,012.8,E*61
110107,001108,$GPRMC,001105,A,3000.1688,N,14458.6312,W,014.4,264.9,070111,012.8,E*6A
110107,001113,$GPRMC,001110,A,3000.1678,N,14458.6540,W,013.5,270.6,070111,012.8,E*6C
110107,001118,$GPRMC,001115,A,3000.1678,N,14458.6765,W,014.9,269.2,070111,012.8,E*6B
110107,001123,$GPRMC,001120,A,3000.1671,N,14458.6996,W,014.3,268.4,070111,012.8,E*6B
110107,001128,$GPRMC,001125,A,3000.1658,N,14458.7217,W,014.4,267.5,070111,012.8,E*6F
110107,001133,$GPRMC,001130,A,3000.1657,N,14458.7452,W,014.2,265.7,070111,012.8,E*65
110107,001138,$GPRMC,001135,A,3000.1643,N,14458.7683,W,014.7,269.4,070111,012.8,E*61
110107,001143,$GPRMC,001140,A,3000.1638,N,14458.7916,W,014.3,264.4,070111,012.8,E*65
110107,001148,$GPRMC,001145,A,3000.1635,N,14458.8150,W,015.0,273.3,070111,012.8,E*6B
110107,001153,$GPRMC,001150,A,3000.1625,N,14458.8379,W,014.4,262.3,070111,012.8,E*62
110107,001158,$GPRMC,001155,A,3000.1627,N,14458.8621,W,014.7,272.1,070111,012.8,E*6D
110107,001203,$GPRMC,001200,A,3000.1618,N,14458.8850,W,014.7,268.1,070111,012.8,E*61
110107,001208,$GPRMC,001205,A,3000.1606,N,14458.9077,W,013.9,263.1,070111,012.8,E*65
110107,001213,$GPRMC,001210,A,3000.1605,N,14458.9308,W,014.5,271.7,070111,012.8,E*67
110107,001218,$GPRMC,001215,A,3000.1597,N,14458.9533,W,014.2,263.5,070111,012.8,E*62
110107,001223,$GPRMC,001220,A,3000.1595,N,14458.9770,W,015.0,272.0,070111,012.8,E*65
110107,001228,$GPRMC,001225,A,3000.1594,N,14459.0001,W,014.3,266.3,070111,012.8,E*6C
110107,001233,$GPRMC,001230,A,3000.1598,N,14459.0238,W,014.7,274.4,070111,012.8,E*6C
110107,001238,$GPRMC,001235,A,3000.1590,N,14459.0465,W,014.5,266.6,070111,012.8,E*6C
110107,001243,$GPRMC,001240,A,3000.1593,N,14459.0706,W,015.1,275.3,070111,012.8,E*69
110107,001248,$GPRMC,001245,A,3000.1591,N,14459.0933,W,014.4,262.8,070111,012.8,E*6F
110107,001253,$GPRMC,001250,A,3000.1581,N,14459.1176,W,014.7,271.2,070111,012.8,E*69
110107,001258,$GPRMC,001255,A,3000.1577,N,14459.1402,W,014.6,266.1,070111,012.8,E*67
110107,001303,$GPRMC,001300,A,3000.1566,N,14459.1638,W,014.6,264.8,070111,012.8,E*66
110107,001308,$GPRMC,001305,A,3000.1556,N,14459.1862,W,014.1,268.6,070111,012.8,E*64
110107,001313,$GPRMC,001310,A,3000.1548,N,14459.2092,W,014.9,263.3,070111,012.8,E*6D
110107,001318,$GPRMC,001315,A,3000.1550,N,14459.2333,W,014.8,275.2,070111,012.8,E*6E
110107,001323,$GPRMC,001320,A,3000.1539,N,14459.2555,W,015.3,271.1,070111,012.8,E*6C
110107,001328,$GPRMC,001325,A,3000.1543,N,14459.2795,W,014.2,267.7,070111,012.8,E*6B
110107,001333,$GPRMC,001330,A,3000.1551,N,14459.3022,W,013.3,266.0,070111,012.8,E*66
110107,001338,$GPRMC,001335,A,3000.1543,N,14459.3250,W,015.7,277.2,070111,012.8,E*67
110107,001343,$GPRMC,001340,A,3000.1547,N,14459.3473,W,013.4,265.2,070111,012.8,E*60
110107,001348,$GPRMC,001345,A,3000.1548,N,14459.3698,W,013.7,269.2,070111,012.8,E*62
110107,001353,$GPRMC,001350,A,3000.1551,N,14459.3924,W,014.4,274.2,070111,012.8,E*6E
110107,001358,$GPRMC,001355,A,3000.1547,N,14459.4145,W,013.6,267.7,070111,012.8,E*66
110107,001403,$GPRMC,001400,A,3000.1544,N,14459.4364,W,014.9,272.7,070111,012.8,E*6F
110107,001408,$GPRMC,001405,A,3000.1562,N,14459.4597,W,013.9,267.5,070111,012.8,E*65
110107,001413,$GPRMC,001410,A,3000.1532,N,14459.4810,W,015.2,273.5,070111,012.8,E*6E
110107,001418,$GPRMC,001415,A,3000.1569,N,14459.5054,W,014.0,266.9,070111,012.8,E*67
110107,001423,$GPRMC,001420,A,3000.1542,N,14459.5273,W,013.7,264.3,070111,012.8,E*67
110107,001428,$GPRMC,001425,A,3000.1553,N,14459.5503,W,015.2,278.0,070111,012.8,E*6F
110107,001433,$GPRMC,001430,A,3000.1549,N,14459.5723,W,012.7,257.8,070111,012.8,E*67
110107,001438,$GPRMC,001435,A,3000.1543,N,14459.5955,W,015.3,277.2,070111,012.8,E*6C
110107,001443,$GPRMC,001440,A,3000.1547,N,14459.6181,W,014.0,263.6,070111,012.8,E*6B
110107,001448,$GPRMC,001445,A,3000.1541,N,14459.6414,W,014.5,273.5,070111,012.8,E*66
110107,001453,$GPRMC,001450,A,3000.1537,N,14459.6636,W,013.7,264.4,070111,012.8,E*63
110107,001458,$GPRMC,001455,A,3000.1530,N,14459.6862,W,014.8,272.1,070111,012.8,E*64
110107,001503,$GPRMC,001500,A,3000.1526,N,14459.7093,W,014.1,263.4,070111,012.8,E*69
110107,001508,$GPRMC,001505,A,3000.1521,N,14459.7322,W,014.5,272.9,070111,012.8,E*6B
110107,001513,$GPRMC,001510,A,3000.1516,N,14459.7556,W,014.9,265.7,070111,012.8,E*6A
110107,001518,$GPRMC,001515,A,3000.1511,N,14459.7788,W,013.7,267.7,070111,012.8,E*62
110107,001523,$GPRMC,001520,A,3000.1500,N,14459.8020,W,016.4,275.9,070111,012.8,E*65
110107,001528,$GPRMC,001525,A,3000.1504,N,14459.8255,W,013.0,254.4,070111,012.8,E*6B
110107,001533,$GPRMC,001530,A,3000.1485,N,14459.8481,W,015.5,277.4,070111,012.8,E*6A
110107,001538,$GPRMC,001535,A,3000.1498,N,14459.8718,W,014.4,264.3,070111,012.8,E*65
110107,001543,$GPRMC,001540,A,3000.1466,N,14459.8937,W,014.2,269.4,070111,012.8,E*69
110107,001548,$GPRMC,001545,A,3000.1482,N,14459.9175,W,015.1,270.0,070111,012.8,E*67
110107,001553,$GPRMC,001550,A,3000.1468,N,14459.9411,W,014.0,263.5,070111,012.8,E*67
110107,001558,$GPRMC,001555,A,3000.1454,N,14459.9634,W,014.6,272.6,070111,012.8,E*6D
110107,001603,$GPRMC,001600,A,3000.1454,N,14459.9877,W,015.3,273.1,070111,012.8,E*65
110107,001608,$GPRMC,001605,A,3000.1458,N,14500.0106,W,013.9,260.0,070111,012.8,E*68
110107,001613,$GPRMC,001610,A,3000.1449,N,14500.0345,W,016.9,281.0,070111,012.8,E*63
110107,001618,$GPRMC,001615,A,3000.1458,N,14500.0580,W,014.3,268.4,070111,012.8,E*62
110107,001623,$GPRMC,001620,A,3000.1437,N,14500.0806,W,014.7,266.6,070111,012.8,E*66
110107,001628,$GPRMC,001625,A,3000.1442,N,14500.1044,W,013.9,265.6,070111,012.8,E*64
110107,001633,$GPRMC,001630,A,3000.1442,N,14500.1278,W,014.5,271.9,070111,012.8,E*6C
110107,001638,$GPRMC,001635,A,3000.1425,N,14500.1503,W,015.3,269.5,070111,012.8,E*61
110107,001643,$GPRMC,001640,A,3000.1434,N,14500.1739,W,013.8,268.4,070111,012.8,E*65
110107,001648,$GPRMC,001645,A,3000.1420,N,14500.1969,W,015.5,271.3,070111,012.8,E*6A
110107,001653,$GPRMC,001650,A,3000.1411,N,14500.2196,W,013.3,261.3,070111,012.8,E*66
110107,001658,$GPRMC,001655,A,3000.1403,N,14500.2422,W,015.2,275.0,070111,012.8,E*6B
110107,001703,$GPRMC,001700,A,3000.1412,N,14500.2659,W,014.2,265.0,070111,012.8,E*64
110107,001708,$GPRMC,001705,A,3000.1392,N,14500.2883,W,014.4,268.1,070111,012.8,E*6D
110107,001713,$GPRMC,001710,A,3000.1418,N,14500.3125,W,014.3,274.0,070111,012.8,E*63
110107,001718,$GPRMC,001715,A,3000.1386,N,14500.3343,W,014.3,262.0,070111,012.8,E*63
110107,001723,$GPRMC,001720,A,3000.1416,N,14500.3586,W,014.7,277.7,070111,012.8,E*63
110107,001728,$GPRMC,001725,A,3000.1400,N,14500.3810,W,014.4,266.1,070111,012.8,E*66
110107,001733,$GPRMC,001730,A,3000.1421,N,14500.4053,W,014.5,272.2,070111,012.8,E*6E
110107,001738,$GPRMC,001735,A,3000.1412,N,14500.4283,W,014.7,269.0,070111,012.8,E*6E
110107,001743,$GPRMC,001740,A,3000.1413,N,14500.4518,W,014.6,269.8,070111,012.8,E*61
110107,001748,$GPRMC,001745,A,3000.1409,N,14500.4752,W,014.7,269.6,070111,012.8,E*6C
110107,001753,$GPRMC,001750,A,3000.1397,N,14500.4981,W,015.2,272.6,070111,012.8,E*66
110107,001758,$GPRMC,001755,A,3000.1398,N,14500.5215,W,014.5,260.9,070111,012.8,E*61
110107,001803,$GPRMC,001800,A,3000.1391,N,14500.5456,W,015.1,273.9,070111,012.8,E*61
110107,001808,$GPRMC,001805,A,3000.1390,N,14500.5687,W,014.7,265.8,070111,012.8,E*6A
110107,001813,$GPRMC,001810,A,3000.1377,N,14500.5924,W,015.2,269.1,070111,012.8,E*60
110107,001818,$GPRMC,001815,A,3000.1371,N,14500.6158,W,013.7,261.0,070111,012.8,E*69
110107,001823,$GPRMC,001820,A,3000.1360,N,14500.6388,W,015.2,269.1,070111,012.8,E*6A
110107,001828,$GPRMC,001825,A,3000.1343,N,14500.6619,W,014.3,264.1,070111,012.8,E*6E
110107,001833,$GPRMC,001830,A,3000.1337,N,14500.6848,W,014.2,262.3,070111,012.8,E*66
110107,001838,$GPRMC,001835,A,3000.1323,N,14500.7083,W,015.4,274.0,070111,012.8,E*6B
110107,001843,$GPRMC,001840,A,3000.1312,N,14500.7308,W,014.0,260.3,070111,012.8,E*68
110107,001848,$GPRMC,001845,A,3000.1301,N,14500.7542,W,014.6,273.7,070111,012.8,E*67
110107,001853,$GPRMC,001850,A,3000.1293,N,14500.7767,W,014.1,268.2,070111,012.8,E*64
110107,001858,$GPRMC,001855,A,3000.1271,N,14500.7986,W,013.6,264.0,070111,012.8,E*62
110107,001903,$GPRMC,001900,A,3000.1285,N,14500.8222,W,014.0,270.1,070111,012.8,E*67
110107,001908,$GPRMC,001905,A,3000.1262,N,14500.8438,W,014.2,268.8,070111,012.8,E*64
110107,001913,$GPRMC,001910,A,3000.1263,N,14500.8659,W,013.9,267.7,070111,012.8,E*68
110107,001918,$GPRMC,001915,A,3000.1251,N,14500.8884,W,014.0,267.0,070111,012.8,E*6B
110107,001923,$GPRMC,001920,A,3000.1243,N,14500.9107,W,014.4,272.4,070111,012.8,E*69
110107,001928,$GPRMC,001925,A,3000.1231,N,14500.9327,W,013.8,260.6,070111,012.8,E*63
110107,001933,$GPRMC,001930,A,3000.1234,N,14500.9566,W,014.3,271.6,070111,012.8,E*6D
110107,001938,$GPRMC,001935,A,3000.1224,N,14500.9790,W,014.1,268.4,070111,012.8,E*6A
110107,001943,$GPRMC,001940,A,3000.1233,N,14501.0021,W,014.3,270.5,070111,012.8,E*61
110107,001948,$GPRMC,001945,A,3000.1213,N,14501.0246,W,014.3,263.2,070111,012.8,E*60
110107,001953,$GPRMC,001950,A,3000.1224,N,14501.0478,W,014.2,272.8,070111,012.8,E*60
110107,001958,$GPRMC,001955,A,3000.1213,N,14501.0709,W,014.9,270.0,070111,012.8,E*65
110107,002003,$GPRMC,002000,A,3000.1213,N,14501.0937,W,014.1,262.9,070111,012.8,E*6E
110107,002008,$GPRMC,002005,A,3000.1208,N,14501.1166,W,014.6,273.2,070111,012.8,E*60
110107,002013,$GPRMC,002010,A,3000.1209,N,14501.1402,W,014.8,268.6,070111,012.8,E*62
110107,002018,$GPRMC,002015,A,3000.1192,N,14501.1627,W,014.3,268.5,070111,012.8,E*6B
110107,002023,$GPRMC,002020,A,3000.1193,N,14501.1861,W,014.7,269.6,070111,012.8,E*66
110107,002028,$GPRMC,002025,A,3000.1184,N,14501.2096,W,014.8,273.5,070111,012.8,E*61
110107,002033,$GPRMC,002030,A,3000.1172,N,14501.2318,W,014.3,262.7,070111,012.8,E*60
110107,002038,$GPRMC,002035,A,3000.1180,N,14501.2564,W,014.5,269.1,070111,012.8,E*6E
110107,002043,$GPRMC,002040,A,3000.1167,N,14501.2794,W,014.9,270.3,070111,012.8,E*6E
110107,002048,$GPRMC,002045,A,3000.1164,N,14501.3030,W,015.2,271.0,070111,012.8,E*68
110107,002053,$GPRMC,002050,A,3000.1163,N,14501.3265,W,014.4,266.6,070111,012.8,E*6E
110107,002058,$GPRMC,002055,A,3000.1153,N,14501.3493,W,014.6,268.8,070111,012.8,E*65
110107,002103,$GPRMC,002100,A,3000.1154,N,14501.3730,W,014.8,267.5,070111,012.8,E*65
110107,002108,$GPRMC,002105,A,3000.1143,N,14501.3957,W,014.3,269.1,070111,012.8,E*68
110107,002113,$GPRMC,002110,A,3000.1141,N,14501.4194,W,015.1,269.0,070111,012.8,E*6C
110107,002118,$GPRMC,002115,A,3000.1142,N,14501.4432,W,014.3,266.2,070111,012.8,E*6D
110107,002123,$GPRMC,002120,A,3000.1131,N,14501.4664,W,015.1,270.2,070111,012.8,E*6A
110107,002128,$GPRMC,002125,A,3000.1138,N,14501.4903,W,014.7,274.0,070111,012.8,E*69
110107,002133,$GPRMC,002130,A,3000.1129,N,14501.5131,W,014.2,263.8,070111,012.8,E*6E
110107,002138,$GPRMC,002135,A,3000.1134,N,14501.5371,W,015.1,273.8,070111,012.8,E*62
110107,002143,$GPRMC,002140,A,3000.1128,N,14501.5594,W,014.1,270.5,070111,012.8,E*6F
110107,002148,$GPRMC,002145,A,3000.1131,N,14501.5823,W,014.3,265.9,070111,012.8,E*69
110107,002153,$GPRMC,002150,A,3000.1115,N,14501.6050,W,013.5,269.9,070111,012.8,E*69
110107,002158,$GPRMC,002155,A,3000.1124,N,14501.6268,W,014.0,268.2,070111,012.8,E*6F
110107,002203,$GPRMC,002200,A,3000.1114,N,14501.6493,W,014.1,269.1,070111,012.8,E*6E
110107,002208,$GPRMC,002205,A,3000.1105,N,14501.6711,W,014.0,267.8,070111,012.8,E*64
110107,002213,$GPRMC,002210,A,3000.1107,N,14501.6944,W,014.5,271.9,070111,012.8,E*6F
110107,002218,$GPRMC,002215,A,3000.1091,N,14501.7166,W,013.8,263.7,070111,012.8,E*6A
110107,002223,$GPRMC,002220,A,3000.1092,N,14501.7396,W,013.9,266.7,070111,012.8,E*66
110107,002228,$GPRMC,002225,A,3000.1089,N,14501.7625,W,014.4,270.6,070111,012.8,E*68
110107,002233,$GPRMC,002230,A,3000.1072,N,14501.7847,W,014.1,267.7,070111,012.8,E*60
110107,002238,$GPRMC,002235,A,3000.1069,N,14501.8077,W,014.3,267.4,070111,012.8,E*6A
110107,002243,$GPRMC,002240,A,3000.1067,N,14501.8303,W,013.7,266.7,070111,012.8,E*67
110107,002248,$GPRMC,002245,A,3000.1049,N,14501.8521,W,014.4,269.3,070111,012.8,E*67
110107,002253,$GPRMC,002250,A,3000.1046,N,14501.8745,W,013.1,265.5,070111,012.8,E*64
110107,002258,$GPRMC,002255,A,3000.1038,N,14501.8963,W,014.1,267.3,070111,012.8,E*61
110107,002303,$GPRMC,002300,A,3000.1027,N,14501.9186,W,013.7,265.6,070111,012.8,E*6A
110107,002308,$GPRMC,002305,A,3000.1028,N,14501.9405,W,014.1,275.5,070111,012.8,E*6D
110107,002313,$GPRMC,002310,A,3000.1025,N,14501.9626,W,013.8,264.9,070111,012.8,E*65
110107,002318,$GPRMC,002315,A,3000.1036,N,14501.9844,W,013.7,276.5,070111,012.8,E*68
110107,002323,$GPRMC,002320,A,3000.1037,N,14502.0073,W,014.5,270.1,070111,012.8,E*6E
110107,002328,$GPRMC,002325,A,3000.1049,N,14502.0298,W,013.4,266.0,070111,012.8,E*65
110107,002333,$GPRMC,002330,A,3000.1048,N,14502.0525,W,015.7,278.3,070111,012.8,E*68
110107,002338,$GPRMC,002335,A,3000.1063,N,14502.0759,W,013.8,262.4,070111,012.8,E*68
110107,002343,$GPRMC,002340,A,3000.1060,N,14502.0982,W,014.3,273.9,070111,012.8,E*60
110107,002348,$GPRMC,002345,A,3000.1067,N,14502.1218,W,015.0,272.3,070111,012.8,E*62
110107,002353,$GPRMC,002350,A,3000.1085,N,14502.1446,W,013.2,266.1,070111,012.8,E*64
110107,002358,$GPRMC,002355,A,3000.1077,N,14502.1677,W,015.1,279.0,070111,012.8,E*66
110107,002403,$GPRMC,002400,A,3000.1106,N,14502.1909,W,013.5,263.4,070111,012.8,E*6D
110107,002408,$GPRMC,002405,A,3000.1092,N,14502.2136,W,015.2,279.0,070111,012.8,E*6D
110107,002413,$GPRMC,002410,A,3000.1112,N,14502.2365,W,014.2,266.1,070111,012.8,E*6A
110107,002418,$GPRMC,002415,A,3000.1104,N,14502.2593,W,014.4,271.1,070111,012.8,E*67
110107,002423,$GPRMC,002420,A,3000.1115,N,14502.2822,W,014.4,271.9,070111,012.8,E*6E
110107,002428,$GPRMC,002425,A,3000.1119,N,14502.3049,W,014.5,274.3,070111,012.8,E*6D
110107,002433,$GPRMC,002430,A,3000.1112,N,14502.3273,W,014.3,262.8,070111,012.8,E*63
110107,002438,$GPRMC,002435,A,3000.1118,N,14502.3510,W,014.4,274.1,070111,012.8,E*67
110107,002443,$GPRMC,002440,A,3000.1116,N,14502.3738,W,014.1,267.7,070111,012.8,E*62
110107,002448,$GPRMC,002445,A,3000.1105,N,14502.3964,W,014.5,269.2,070111,012.8,E*6D
110107,002453,$GPRMC,002450,A,3000.1109,N,14502.4201,W,014.2,269.0,070111,012.8,E*6F
110107,002458,$GPRMC,002455,A,3000.1108,N,14502.4430,W,014.5,272.4,070111,012.8,E*66
110107,002506,$GPRMC,002500,A,3000.1095,N,14502.4658,W,014.2,262.8,070111,012.8,E*64
110107,002508,$GPRMC,002505,A,3000.1107,N,14502.4887,W,015.2,281.9,070111,012.8,E*6A
110107,002513,$GPRMC,002510,A,3000.1111,N,14502.5120,W,014.4,265.0,070111,012.8,E*68
110107,002518,$GPRMC,002515,A,3000.1107,N,14502.5351,W,014.4,271.7,070111,012.8,E*6C
110107,002523,$GPRMC,002520,A,3000.1119,N,14502.5585,W,014.5,273.6,070111,012.8,E*68
110107,002528,$GPRMC,002525,A,3000.1116,N,14502.5817,W,014.9,272.6,070111,012.8,E*69
110107,002533,$GPRMC,002530,A,3000.1124,N,14502.6050,W,014.5,267.3,070111,012.8,E*69
110107,002538,$GPRMC,002535,A,3000.1135,N,14502.6286,W,014.6,274.4,070111,012.8,E*63
110107,002543,$GPRMC,002540,A,3000.1127,N,14502.6514,W,014.4,270.1,070111,012.8,E*6D
110107,002548,$GPRMC,002545,A,3000.1138,N,14502.6744,W,014.4,272.6,070111,012.8,E*64
110107,002553,$GPRMC,002550,A,3000.1132,N,14502.6975,W,014.4,271.6,070111,012.8,E*65
110107,002558,$GPRMC,002555,A,3000.1129,N,14502.7197,W,014.1,267.9,070111,012.8,E*62
110107,002603,$GPRMC,002600,A,3000.1127,N,14502.7429,W,014.5,269.5,070111,012.8,E*69
110107,002608,$GPRMC,002605,A,3000.1124,N,14502.7652,W,014.2,272.7,070111,012.8,E*6E
110107,002613,$GPRMC,002610,A,3000.1119,N,14502.7881,W,014.5,269.6,070111,012.8,E*68
110107,002618,$GPRMC,002615,A,3000.1122,N,14502.8111,W,013.7,269.3,070111,012.8,E*6A
110107,002623,$GPRMC,002620,A,3000.1123,N,14502.8339,W,014.7,271.6,070111,012.8,E*6E
110107,002628,$GPRMC,002625,A,3000.1122,N,14502.8569,W,014.1,264.0,070111,012.8,E*6D
110107,002633,$GPRMC,002630,A,3000.1122,N,14502.8798,W,014.4,275.2,070111,012.8,E*62
110107,002638,$GPRMC,002635,A,3000.1127,N,14502.9031,W,014.5,269.1,070111,012.8,E*68
110107,002643,$GPRMC,002640,A,3000.1136,N,14502.9266,W,014.4,271.7,070111,012.8,E*64
110107,002648,$GPRMC,002645,A,3000.1117,N,14502.9493,W,014.9,264.1,070111,012.8,E*61
110107,002653,$GPRMC,002650,A,3000.1141,N,14502.9733,W,015.0,278.2,070111,012.8,E*69
110107,002658,$GPRMC,002655,A,3000.1132,N,14502.9964,W,014.5,267.2,070111,012.8,E*6E
110107,002703,$GPRMC,002700,A,3000.1134,N,14503.0198,W,015.1,272.8,070111,012.8,E*61
110107,002708,$GPRMC,002705,A,3000.1144,N,14503.0437,W,014.5,271.5,070111,012.8,E*68
110107,002713,$GPRMC,002710,A,3000.1139,N,14503.0667,W,014.5,266.0,070111,012.8,E*62
110107,002718,$GPRMC,002715,A,3000.1143,N,14503.0903,W,014.8,271.2,070111,012.8,E*6E
110107,002723,$GPRMC,002720,A,3000.1137,N,14503.1132,W,014.6,269.6,070111,012.8,E*63
110107,002728,$GPRMC,002725,A,3000.1136,N,14503.1366,W,014.9,272.9,070111,012.8,E*6E
110107,002733,$GPRMC,002730,A,3000.1133,N,14503.1601,W,014.3,266.5,070111,012.8,E*68
110107,002738,$GPRMC,002735,A,3000.1124,N,14503.1831,W,015.2,272.6,070111,012.8,E*60
110107,002743,$GPRMC,002740,A,3000.1130,N,14503.2069,W,014.5,265.0,070111,012.8,E*67
110107,002748,$GPRMC,002745,A,3000.1117,N,14503.2303,W,015.0,270.3,070111,012.8,E*6B
110107,002753,$GPRMC,002750,A,3000.1115,N,14503.2540,W,015.0,269.8,070111,012.8,E*6F
110107,002758,$GPRMC,002755,A,3000.1119,N,14503.2779,W,014.7,264.8,070111,012.8,E*65
110107,002803,$GPRMC,002800,A,3000.1099,N,14503.3017,W,015.2,270.5,070111,012.8,E*61
110107,002808,$GPRMC,002805,A,3000.1104,N,14503.3255,W,014.9,272.0,070111,012.8,E*68
110107,002813,$GPRMC,002810,A,3000.1095,N,14503.3493,W,015.0,261.7,070111,012.8,E*64
110107,002818,$GPRMC,002815,A,3000.1091,N,14503.3732,W,015.2,275.9,070111,012.8,E*64
110107,002823,$GPRMC,002820,A,3000.1089,N,14503.3976,W,015.4,267.1,070111,012.8,E*68
110107,002828,$GPRMC,002825,A,3000.1092,N,14503.4218,W,014.5,266.5,070111,012.8,E*66
110107,002833,$GPRMC,002830,A,3000.1084,N,14503.4460,W,016.1,275.8,070111,012.8,E*65
110107,002838,$GPRMC,002835,A,3000.1099,N,14503.4707,W,015.1,266.3,070111,012.8,E*64
110107,002843,$GPRMC,002840,A,3000.1085,N,14503.4951,W,015.6,273.9,070111,012.8,E*6F
110107,002848,$GPRMC,002845,A,3000.1101,N,14503.5200,W,015.1,269.1,070111,012.8,E*6D
110107,002853,$GPRMC,002850,A,3000.1108,N,14503.5448,W,015.3,272.7,070111,012.8,E*64
110107,002858,$GPRMC,002855,A,3000.1099,N,14503.5687,W,015.4,268.4,070111,012.8,E*66
110107,002903,$GPRMC,002900,A,3000.1124,N,14503.5939,W,015.6,279.3,070111,012.8,E*6F
110107,002908,$GPRMC,002905,A,3000.1119,N,14503.6177,W,015.0,266.8,070111,012.8,E*66
110107,002913,$GPRMC,002910,A,3000.1131,N,14503.6419,W,015.4,272.7,070111,012.8,E*6B
110107,002918,$GPRMC,002915,A,3000.1135,N,14503.6664,W,015.2,271.8,070111,012.8,E*68
110107,002923,$GPRMC,002920,A,3000.1137,N,14503.6906,W,014.7,267.4,070111,012.8,E*68
110107,002928,$GPRMC,002925,A,3000.1139,N,14503.7146,W,015.3,273.8,070111,012.8,E*62
110107,002933,$GPRMC,002930,A,3000.1143,N,14503.7390,W,015.2,266.4,070111,012.8,E*6B
110107,002938,$GPRMC,002935,A,3000.1151,N,14503.7627,W,014.8,270.6,070111,012.8,E*6A
110107,002943,$GPRMC,002940,A,3000.1149,N,14503.7871,W,015.6,274.0,070111,012.8,E*61
110107,002948,$GPRMC,002945,A,3000.1154,N,14503.8109,W,014.9,265.3,070111,012.8,E*6C
110107,002953,$GPRMC,002950,A,3000.1157,N,14503.8350,W,015.0,273.9,070111,012.8,E*60
110107,002958,$GPRMC,002955,A,3000.1167,N,14503.8594,W,015.1,272.9,070111,012.8,E*68
110107,003003,$GPRMC,003000,A,3000.1160,N,14503.8830,W,014.8,267.1,070111,012.8,E*60
110107,003008,$GPRMC,003005,A,3000.1175,N,14503.9071,W,015.3,275.7,070111,012.8,E*62
110107,003013,$GPRMC,003010,A,3000.1175,N,14503.9308,W,015.1,270.8,070111,012.8,E*63
110107,003018,$GPRMC,003015,A,3000.1176,N,14503.9553,W,015.1,269.5,070111,012.8,E*68
110107,003023,$GPRMC,003020,A,3000.1183,N,14503.9796,W,014.9,270.9,070111,012.8,E*62
110107,003028,$GPRMC,003025,A,3000.1180,N,14504.0032,W,015.0,265.3,070111,012.8,E*65
110107,003033,$GPRMC,003030,A,3000.1187,N,14504.0273,W,014.6,272.5,070111,012.8,E*66
110107,003038,$GPRMC,003035,A,3000.1184,N,14504.0502,W,014.7,271.4,070111,012.8,E*62
110107,003043,$GPRMC,003040,A,3000.1185,N,14504.0738,W,014.6,268.1,070111,012.8,E*66
110107,003048,$GPRMC,003045,A,3000.1188,N,14504.0973,W,014.5,271.4,070111,012.8,E*61
110107,003053,$GPRMC,003050,A,3000.1174,N,14504.1202,W,014.8,271.9,070111,012.8,E*6A
110107,003058,$GPRMC,003055,A,3000.1179,N,14504.1435,W,014.6,266.9,070111,012.8,E*68
110107,003103,$GPRMC,003100,A,3000.1184,N,14504.1672,W,014.8,272.7,070111,012.8,E*6F
110107,003108,$GPRMC,003105,A,3000.1182,N,14504.1904,W,014.4,269.2,070111,012.8,E*61
110107,003113,$GPRMC,003110,A,3000.1182,N,14504.2135,W,014.5,272.1,070111,012.8,E*64
110107,003118,$GPRMC,003115,A,3000.1190,N,14504.2365,W,014.3,269.0,070111,012.8,E*68
110107,003123,$GPRMC,003120,A,3000.1178,N,14504.2591,W,014.5,266.8,070111,012.8,E*64
110107,003128,$GPRMC,003125,A,3000.1185,N,14504.2825,W,014.5,272.7,070111,012.8,E*6B
110107,003133,$GPRMC,003130,A,3000.1170,N,14504.3050,W,014.7,271.3,070111,012.8,E*6B
110107,003138,$GPRMC,003135,A,3000.1180,N,14504.3284,W,014.1,264.5,070111,012.8,E*6E
110107,003143,$GPRMC,003140,A,3000.1169,N,14504.3514,W,015.2,277.1,070111,012.8,E*61
110107,003148,$GPRMC,003145,A,3000.1185,N,14504.3747,W,014.5,263.9,070111,012.8,E*69
110107,003153,$GPRMC,003150,A,3000.1173,N,14504.3978,W,014.3,271.2,070111,012.8,E*68
110107,003158,$GPRMC,003155,A,3000.1172,N,14504.4209,W,015.2,274.2,070111,012.8,E*63
110107,003203,$GPRMC,003200,A,3000.1196,N,14504.4449,W,013.9,265.9,070111,012.8,E*6E
110107,003208,$GPRMC,003205,A,3000.1174,N,14504.4677,W,014.9,271.4,070111,012.8,E*67
110107,003213,$GPRMC,003210,A,3000.1203,N,14504.4927,W,015.6,277.3,070111,012.8,E*65
110107,003218,$GPRMC,003215,A,3000.1192,N,14504.5158,W,014.5,264.5,070111,012.8,E*6C
110107,003223,$GPRMC,003220,A,3000.1194,N,14504.5391,W,014.8,272.2,070111,012.8,E*66
110107,003228,$GPRMC,003225,A,3000.1202,N,14504.5637,W,015.2,272.1,070111,012.8,E*6E
110107,003233,$GPRMC,003230,A,3000.1203,N,14504.5871,W,014.5,269.8,070111,012.8,E*62
110107,003238,$GPRMC,003235,A,3000.1205,N,14504.6103,W,015.0,270.0,070111,012.8,E*6A
110107,003243,$GPRMC,003240,A,3000.1218,N,14504.6348,W,015.0,273.9,070111,012.8,E*63
110107,003248,$GPRMC,003245,A,3000.1216,N,14504.6582,W,014.8,271.6,070111,012.8,E*6C
110107,003253,$GPRMC,003250,A,3000.1212,N,14504.6818,W,014.9,269.1,070111,012.8,E*6D
110107,003258,$GPRMC,003255,A,3000.1247,N,14504.7060,W,014.0,272.9,070111,012.8,E*65
110107,003303,$GPRMC,003300,A,3000.1226,N,14504.7291,W,015.5,274.8,070111,012.8,E*6C
110107,003308,$GPRMC,003305,A,3000.1269,N,14504.7538,W,014.4,269.9,070111,012.8,E*6B
110107,003313,$GPRMC,003310,A,3000.1258,N,14504.7771,W,015.0,273.4,070111,012.8,E*61
110107,003318,$GPRMC,003315,A,3000.1271,N,14504.8010,W,015.0,271.1,070111,012.8,E*67
110107,003323,$GPRMC,003320,A,3000.1266,N,14504.8240,W,014.8,275.6,070111,012.8,E*6A
110107,003328,$GPRMC,003325,A,3000.1280,N,14504.8477,W,014.2,267.5,070111,012.8,E*6F
110107,003333,$GPRMC,003330,A,3000.1275,N,14504.8706,W,014.5,267.7,070111,012.8,E*61
110107,003338,$GPRMC,003335,A,3000.1284,N,14504.8943,W,014.8,276.3,070111,012.8,E*6C
110107,003343,$GPRMC,003340,A,3000.1284,N,14504.9178,W,014.4,269.4,070111,012.8,E*6A
110107,003348,$GPRMC,003345,A,3000.1277,N,14504.9406,W,015.0,269.0,070111,012.8,E*6E
110107,003353,$GPRMC,003350,A,3000.1302,N,14504.9645,W,014.2,273.7,070111,012.8,E*63
110107,003358,$GPRMC,003355,A,3000.1279,N,14504.9865,W,015.0,267.5,070111,012.8,E*63
110107,003403,$GPRMC,003400,A,3000.1317,N,14505.0109,W,014.0,276.6,070111,012.8,E*64
110107,003408,$GPRMC,003405,A,3000.1310,N,14505.0334,W,014.5,270.1,070111,012.8,E*6E
110107,003413,$GPRMC,003410,A,3000.1314,N,14505.0568,W,014.6,267.3,070111,012.8,E*66
110107,003418,$GPRMC,003415,A,3000.1313,N,14505.0800,W,014.3,275.0,070111,012.8,E*62
110107,003423,$GPRMC,003420,A,3000.1309,N,14505.1031,W,014.2,262.0,070111,012.8,E*63
110107,003428,$GPRMC,003425,A,3000.1300,N,14505.1258,W,014.4,270.7,070111,012.8,E*60
110107,003433,$GPRMC,003430,A,3000.1302,N,14505.1487,W,013.9,270.3,070111,012.8,E*6C
110107,003438,$GPRMC,003435,A,3000.1291,N,14505.1705,W,014.2,264.7,070111,012.8,E*66
110107,003443,$GPRMC,003440,A,3000.1293,N,14505.1940,W,014.9,273.3,070111,012.8,E*60
110107,003448,$GPRMC,003445,A,3000.1282,N,14505.2166,W,014.4,265.4,070111,012.8,E*67
110107,003453,$GPRMC,003450,A,3000.1280,N,14505.2399,W,014.7,269.6,070111,012.8,E*6E
110107,003458,$GPRMC,003455,A,3000.1278,N,14505.2632,W,014.5,271.1,070111,012.8,E*64
110107,003503,$GPRMC,003500,A,3000.1270,N,14505.2863,W,015.0,265.3,070111,012.8,E*64
110107,003508,$GPRMC,003505,A,3000.1277,N,14505.3107,W,014.4,274.2,070111,012.8,E*68
110107,003513,$GPRMC,003510,A,3000.1268,N,14505.3338,W,015.1,266.7,070111,012.8,E*6E
110107,003518,$GPRMC,003515,A,3000.1287,N,14505.3585,W,014.8,275.4,070111,012.8,E*63
110107,003523,$GPRMC,003520,A,3000.1275,N,14505.3821,W,015.1,266.5,070111,012.8,E*60
110107,003528,$GPRMC,003525,A,3000.1291,N,14505.4068,W,014.9,274.4,070111,012.8,E*66
110107,003533,$GPRMC,003530,A,3000.1287,N,14505.4308,W,015.0,267.4,070111,012.8,E*6A
110107,003538,$GPRMC,003535,A,3000.1295,N,14505.4549,W,015.2,275.9,070111,012.8,E*63
110107,003543,$GPRMC,003540,A,3000.1297,N,14505.4787,W,015.2,273.0,070111,012.8,E*6C
110107,003548,$GPRMC,003545,A,3000.1301,N,14505.5028,W,015.4,272.5,070111,012.8,E*66
110107,003553,$GPRMC,003550,A,3000.1336,N,14505.5271,W,014.6,271.5,070111,012.8,E*68
110107,003558,$GPRMC,003555,A,3000.1326,N,14505.5504,W,014.7,273.1,070111,012.8,E*6E
110107,003603,$GPRMC,003600,A,3000.1349,N,14505.5739,W,014.6,272.4,070111,012.8,E*6D
110107,003608,$GPRMC,003605,A,3000.1346,N,14505.5976,W,014.5,266.9,070111,012.8,E*69
110107,003613,$GPRMC,003610,A,3000.1348,N,14505.6204,W,014.6,272.9,070111,012.8,E*68
110107,003618,$GPRMC,003615,A,3000.1349,N,14505.6444,W,015.0,267.7,070111,012.8,E*63
110107,003623,$GPRMC,003620,A,3000.1343,N,14505.6673,W,014.4,265.7,070111,012.8,E*6E
110107,003628,$GPRMC,003625,A,3000.1340,N,14505.6909,W,015.3,277.9,070111,012.8,E*61
110107,003633,$GPRMC,003630,A,3000.1341,N,14505.7141,W,014.5,263.5,070111,012.8,E*6F
110107,003638,$GPRMC,003635,A,3000.1335,N,14505.7375,W,015.0,273.5,070111,012.8,E*69
110107,003643,$GPRMC,003640,A,3000.1337,N,14505.7615,W,014.6,269.7,070111,012.8,E*64
110107,003648,$GPRMC,003645,A,3000.1332,N,14505.7842,W,014.5,269.0,070111,012.8,E*6C
110107,003653,$GPRMC,003650,A,3000.1340,N,14505.8076,W,014.3,272.4,070111,012.8,E*65
110107,003658,$GPRMC,003655,A,3000.1332,N,14505.8308,W,014.8,266.7,070111,012.8,E*62
110107,003703,$GPRMC,003700,A,3000.1338,N,14505.8545,W,014.6,273.7,070111,012.8,E*6C
110107,003708,$GPRMC,003705,A,3000.1332,N,14505.8772,W,014.7,268.4,070111,012.8,E*6D
110107,003713,$GPRMC,003710,A,3000.1346,N,14505.9013,W,014.9,272.8,070111,012.8,E*62
110107,003718,$GPRMC,003715,A,3000.1333,N,14505.9243,W,014.7,264.0,070111,012.8,E*63
110107,003723,$GPRMC,003720,A,3000.1346,N,14505.9483,W,015.0,278.6,070111,012.8,E*60
110107,003728,$GPRMC,003725,A,3000.1344,N,14505.9724,W,015.5,268.6,070111,012.8,E*6D
110107,003733,$GPRMC,003730,A,3000.1345,N,14505.9971,W,014.9,266.8,070111,012.8,E*6B
110107,003738,$GPRMC,003735,A,3000.1339,N,14506.0209,W,015.1,273.8,070111,012.8,E*66
110107,003743,$GPRMC,003740,A,3000.1348,N,14506.0457,W,015.2,269.6,070111,012.8,E*69
110107,003748,$GPRMC,003745,A,3000.1341,N,14506.0687,W,014.9,274.5,070111,012.8,E*6F
110107,003753,$GPRMC,003750,A,3000.1354,N,14506.0926,W,015.6,266.2,070111,012.8,E*61
110107,003758,$GPRMC,003755,A,3000.1370,N,14506.1167,W,014.9,280.5,070111,012.8,E*6F
110107,003803,$GPRMC,003800,A,3000.1369,N,14506.1394,W,014.5,263.9,070111,012.8,E*6B
110107,003808,$GPRMC,003805,A,3000.1385,N,14506.1626,W,015.2,279.5,070111,012.8,E*61
110107,003813,$GPRMC,003810,A,3000.1390,N,14506.1856,W,014.5,264.7,070111,012.8,E*60
110107,003818,$GPRMC,003815,A,3000.1388,N,14506.2092,W,014.7,274.1,070111,012.8,E*6A
110107,003823,$GPRMC,003820,A,3000.1386,N,14506.2326,W,014.5,264.8,070111,012.8,E*64
110107,003828,$GPRMC,003825,A,3000.1401,N,14506.2563,W,014.3,270.8,070111,012.8,E*6D
110107,003833,$GPRMC,003830,A,3000.1394,N,14506.2792,W,014.7,275.5,070111,012.8,E*62
110107,003838,$GPRMC,003835,A,3000.1407,N,14506.3029,W,014.7,269.3,070111,012.8,E*67
110107,003843,$GPRMC,003840,A,3000.1401,N,14506.3252,W,013.9,268.4,070111,012.8,E*62
110107,003848,$GPRMC,003845,A,3000.1400,N,14506.3480,W,014.3,270.2,070111,012.8,E*6D
110107,003853,$GPRMC,003850,A,3000.1401,N,14506.3712,W,014.2,270.1,070111,012.8,E*62
110107,003858,$GPRMC,003855,A,3000.1391,N,14506.3943,W,014.2,262.7,070111,012.8,E*66
110107,003903,$GPRMC,003900,A,3000.1378,N,14506.4173,W,014.9,280.0,070111,012.8,E*6C
110107,003908,$GPRMC,003905,A,3000.1392,N,14506.4406,W,014.2,264.4,070111,012.8,E*6F
110107,003913,$GPRMC,003910,A,3000.1378,N,14506.4634,W,014.3,269.1,070111,012.8,E*65
110107,003918,$GPRMC,003915,A,3000.1398,N,14506.4864,W,014.8,278.7,070111,012.8,E*68
110107,003923,$GPRMC,003920,A,3000.1385,N,14506.5095,W,015.1,260.1,070111,012.8,E*62
110107,003928,$GPRMC,003925,A,3000.1385,N,14506.5332,W,014.4,271.0,070111,012.8,E*6C
110107,003933,$GPRMC,003930,A,3000.1376,N,14506.5558,W,014.5,266.2,070111,012.8,E*6B
110107,003938,$GPRMC,003935,A,3000.1380,N,14506.5787,W,014.6,269.7,070111,012.8,E*6E
110107,003943,$GPRMC,003940,A,3000.1370,N,14506.6012,W,014.7,266.9,070111,012.8,E*6B
110107,003948,$GPRMC,003945,A,3000.1367,N,14506.6251,W,014.5,270.3,070111,012.8,E*62
110107,003953,$GPRMC,003950,A,3000.1363,N,14506.6485,W,014.5,270.7,070111,012.8,E*69
110107,003958,$GPRMC,003955,A,3000.1368,N,14506.6717,W,014.3,269.1,070111,012.8,E*67
110107,004003,$GPRMC,004000,A,3000.1360,N,14506.6956,W,015.8,277.3,070111,012.8,E*6D
110107,004008,$GPRMC,004005,A,3000.1373,N,14506.7183,W,014.3,260.9,070111,012.8,E*6D
110107,004013,$GPRMC,004010,A,3000.1367,N,14506.7419,W,015.3,277.6,070111,012.8,E*62
110107,004018,$GPRMC,004015,A,3000.1389,N,14506.7660,W,014.4,271.0,070111,012.8,E*6D
110107,004023,$GPRMC,004020,A,3000.1384,N,14506.7888,W,014.7,267.5,070111,012.8,E*6F
110107,004028,$GPRMC,004025,A,3000.1397,N,14506.8130,W,015.4,274.3,070111,012.8,E*6B
110107,004033,$GPRMC,004030,A,3000.1399,N,14506.8370,W,014.6,270.1,070111,012.8,E*62
110107,004038,$GPRMC,004035,A,3000.1400,N,14506.8608,W,014.8,269.1,070111,012.8,E*6C
110107,004043,$GPRMC,004040,A,3000.1417,N,14506.8847,W,015.0,273.7,070111,012.8,E*69
110107,004048,$GPRMC,004045,A,3000.1412,N,14506.9079,W,014.8,271.5,070111,012.8,E*64
110107,004053,$GPRMC,004050,A,3000.1418,N,14506.9319,W,014.8,271.3,070111,012.8,E*69
110107,004058,$GPRMC,004055,A,3000.1419,N,14506.9555,W,014.9,270.8,070111,012.8,E*68
110107,004103,$GPRMC,004100,A,3000.1425,N,14506.9795,W,014.6,274.2,070111,012.8,E*69
110107,004108,$GPRMC,004105,A,3000.1429,N,14507.0033,W,014.6,265.3,070111,012.8,E*62
110107,004113,$GPRMC,004110,A,3000.1435,N,14507.0274,W,015.4,275.1,070111,012.8,E*6A
110107,004118,$GPRMC,004115,A,3000.1420,N,14507.0509,W,015.1,267.8,070111,012.8,E*69
110107,004123,$GPRMC,004120,A,3000.1433,N,14507.0742,W,014.0,266.5,070111,012.8,E*6C
110107,004128,$GPRMC,004125,A,3000.1426,N,14507.0980,W,014.8,271.2,070111,012.8,E*64
110107,004133,$GPRMC,004130,A,3000.1430,N,14507.1215,W,015.2,273.0,070111,012.8,E*6A
110107,004138,$GPRMC,004135,A,3000.1435,N,14507.1454,W,014.1,264.5,070111,012.8,E*68
110107,004143,$GPRMC,004140,A,3000.1429,N,14507.1690,W,015.4,273.0,070111,012.8,E*6A
110107,004148,$GPRMC,004145,A,3000.1439,N,14507.1930,W,014.7,267.1,070111,012.8,E*6D
110107,004153,$GPRMC,004150,A,3000.1436,N,14507.2161,W,014.9,269.1,070111,012.8,E*69
110107,004158,$GPRMC,004155,A,3000.1430,N,14507.2400,W,015.1,271.5,070111,012.8,E*6C
110107,004203,$GPRMC,004200,A,3000.1437,N,14507.2629,W,014.6,269.7,070111,012.8,E*6C
110107,004208,$GPRMC,004205,A,3000.1432,N,14507.2863,W,014.8,271.4,070111,012.8,E*68
110107,004213,$GPRMC,004210,A,3000.1436,N,14507.3095,W,014.3,266.8,070111,012.8,E*69
110107,004218,$GPRMC,004215,A,3000.1434,N,14507.3329,W,014.5,269.2,070111,012.8,E*69
110107,004223,$GPRMC,004220,A,3000.1434,N,14507.3568,W,015.1,275.1,070111,012.8,E*67
110107,004228,$GPRMC,004225,A,3000.1438,N,14507.3801,W,014.5,270.0,070111,012.8,E*6D
110107,004233,$GPRMC,004230,A,3000.1455,N,14507.4034,W,014.1,269.4,070111,012.8,E*63
110107,004238,$GPRMC,004235,A,3000.1456,N,14507.4268,W,015.4,279.1,070111,012.8,E*6E
110107,004243,$GPRMC,004240,A,3000.1482,N,14507.4498,W,014.3,271.8,070111,012.8,E*6B
110107,004248,$GPRMC,004245,A,3000.1479,N,14507.4729,W,014.6,273.1,070111,012.8,E*6D
110107,004253,$GPRMC,004250,A,3000.1488,N,14507.4961,W,014.3,271.1,070111,012.8,E*62
110107,004258,$GPRMC,004255,A,3000.1502,N,14507.5195,W,014.6,270.1,070111,012.8,E*62
110107,004303,$GPRMC,004300,A,3000.1497,N,14507.5426,W,014.3,273.7,070111,012.8,E*63
110107,004308,$GPRMC,004305,A,3000.1504,N,14507.5654,W,014.7,268.9,070111,012.8,E*6A
110107,004313,$GPRMC,004310,A,3000.1519,N,14507.5881,W,012.9,272.8,070111,012.8,E*66
110107,004318,$GPRMC,004315,A,3000.1512,N,14507.6103,W,015.3,274.4,070111,012.8,E*6F
110107,004323,$GPRMC,004320,A,3000.1531,N,14507.6345,W,014.2,268.2,070111,012.8,E*63
110107,004328,$GPRMC,004325,A,3000.1532,N,14507.6577,W,014.9,276.8,070111,012.8,E*6C
110107,004333,$GPRMC,004330,A,3000.1547,N,14507.6816,W,014.7,268.5,070111,012.8,E*6C
110107,004338,$GPRMC,004335,A,3000.1540,N,14507.7053,W,014.7,274.0,070111,012.8,E*6E
110107,004343,$GPRMC,004340,A,3000.1553,N,14507.7283,W,014.8,272.3,070111,012.8,E*6B
110107,004348,$GPRMC,004345,A,3000.1562,N,14507.7519,W,014.6,266.9,070111,012.8,E*69
110107,004353,$GPRMC,004350,A,3000.1566,N,14507.7757,W,015.5,276.5,070111,012.8,E*6E
110107,004358,$GPRMC,004355,A,3000.1573,N,14507.7990,W,013.9,266.4,070111,012.8,E*60
110107,004403,$GPRMC,004400,A,3000.1576,N,14507.8225,W,014.7,275.4,070111,012.8,E*63
110107,004408,$GPRMC,004405,A,3000.1578,N,14507.8470,W,015.1,265.7,070111,012.8,E*6B
110107,004413,$GPRMC,004410,A,3000.1586,N,14507.8714,W,014.9,272.2,070111,012.8,E*65
110107,004418,$GPRMC,004415,A,3000.1600,N,14507.8948,W,014.6,273.4,070111,012.8,E*62
110107,004423,$GPRMC,004420,A,3000.1593,N,14507.9180,W,015.5,273.1,070111,012.8,E*67
110107,004428,$GPRMC,004425,A,3000.1623,N,14507.9411,W,014.1,267.1,070111,012.8,E*67
110107,004433,$GPRMC,004430,A,3000.1611,N,14507.9642,W,015.0,277.6,070111,012.8,E*60
110107,004438,$GPRMC,004435,A,3000.1633,N,14507.9880,W,014.2,264.8,070111,012.8,E*6A
110107,004443,$GPRMC,004440,A,3000.1619,N,14508.0111,W,014.9,270.7,070111,012.8,E*66
110107,004448,$GPRMC,004445,A,3000.1637,N,14508.0351,W,014.6,274.8,070111,012.8,E*6D
110107,004453,$GPRMC,004450,A,3000.1626,N,14508.0580,W,013.9,268.5,070111,012.8,E*6B
110107,004458,$GPRMC,004455,A,3000.1628,N,14508.0813,W,014.9,274.7,070111,012.8,E*6F
110107,004503,$GPRMC,004500,A,3000.1635,N,14508.1052,W,014.7,271.8,070111,012.8,E*6A
110107,004508,$GPRMC,004505,A,3000.1649,N,14508.1273,W,013.3,271.9,070111,012.8,E*67
110107,004513,$GPRMC,004510,A,3000.1648,N,14508.1496,W,015.0,283.7,070111,012.8,E*69
110107,004518,$GPRMC,004515,A,3000.1674,N,14508.1730,W,013.7,262.0,070111,012.8,E*65
110107,004523,$GPRMC,004520,A,3000.1668,N,14508.1955,W,014.9,279.8,070111,012.8,E*68
110107,004528,$GPRMC,004525,A,3000.1686,N,14508.2186,W,013.9,267.5,070111,012.8,E*6D
110107,004533,$GPRMC,004530,A,3000.1679,N,14508.2409,W,015.0,276.3,070111,012.8,E*62
110107,004538,$GPRMC,004535,A,3000.1708,N,14508.2643,W,014.0,271.1,070111,012.8,E*68
110107,004543,$GPRMC,004540,A,3000.1696,N,14508.2873,W,014.5,272.9,070111,012.8,E*6F
110107,004548,$GPRMC,004545,A,3000.1727,N,14508.3107,W,014.7,274.6,070111,012.8,E*61
110107,004553,$GPRMC,004550,A,3000.1719,N,14508.3337,W,014.3,269.4,070111,012.8,E*63
110107,004558,$GPRMC,004555,A,3000.1734,N,14508.3575,W,014.6,273.4,070111,012.8,E*67
110107,004603,$GPRMC,004600,A,3000.1740,N,14508.3805,W,014.7,274.1,070111,012.8,E*6E
110107,004608,$GPRMC,004605,A,3000.1749,N,14508.4037,W,014.7,267.2,070111,012.8,E*6D
110107,004613,$GPRMC,004610,A,3000.1755,N,14508.4270,W,013.6,276.0,070111,012.8,E*61
110107,004618,$GPRMC,004615,A,3000.1756,N,14508.4500,W,014.5,272.0,070111,012.8,E*67
110107,004623,$GPRMC,004620,A,3000.1774,N,14508.4737,W,013.8,270.4,070111,012.8,E*6B
110107,004628,$GPRMC,004625,A,3000.1754,N,14508.4963,W,014.8,273.5,070111,012.8,E*66
110107,004633,$GPRMC,004630,A,3000.1788,N,14508.5212,W,013.7,268.1,070111,012.8,E*69
110107,004638,$GPRMC,004635,A,3000.1769,N,14508.5441,W,014.7,276.8,070111,012.8,E*62
110107,004643,$GPRMC,004640,A,3000.1783,N,14508.5679,W,014.9,270.2,070111,012.8,E*6F
110107,004648,$GPRMC,004645,A,3000.1793,N,14508.5918,W,014.2,273.8,070111,012.8,E*61
110107,004653,$GPRMC,004650,A,3000.1786,N,14508.6140,W,014.2,276.5,070111,012.8,E*6F
110107,004658,$GPRMC,004655,A,3000.1812,N,14508.6382,W,014.4,272.2,070111,012.8,E*61
110107,004703,$GPRMC,004700,A,3000.1803,N,14508.6610,W,014.4,265.0,070111,012.8,E*6A
110107,004708,$GPRMC,004705,A,3000.1814,N,14508.6848,W,015.6,283.8,070111,012.8,E*69
110107,004713,$GPRMC,004710,A,3000.1823,N,14508.7075,W,014.2,259.4,070111,012.8,E*60
110107,004718,$GPRMC,004715,A,3000.1821,N,14508.7301,W,014.7,279.5,070111,012.8,E*61
110107,004723,$GPRMC,004720,A,3000.1833,N,14508.7541,W,014.7,267.6,070111,012.8,E*6A
110107,004728,$GPRMC,004725,A,3000.1825,N,14508.7772,W,014.7,268.1,070111,012.8,E*62
110107,004733,$GPRMC,004730,A,3000.1827,N,14508.8016,W,015.6,274.6,070111,012.8,E*64
110107,004738,$GPRMC,004735,A,3000.1830,N,14508.8247,W,014.7,261.9,070111,012.8,E*6A
110107,004743,$GPRMC,004740,A,3000.1838,N,14508.8480,W,014.8,275.3,070111,012.8,E*6D
110107,004748,$GPRMC,004745,A,3000.1845,N,14508.8711,W,014.3,269.8,070111,012.8,E*64
110107,004753,$GPRMC,004750,A,3000.1846,N,14508.8945,W,015.3,274.3,070111,012.8,E*6A
110107,004758,$GPRMC,004755,A,3000.1862,N,14508.9180,W,014.2,268.6,070111,012.8,E*61
110107,004803,$GPRMC,004800,A,3000.1854,N,14508.9409,W,014.8,277.4,070111,012.8,E*69
110107,004808,$GPRMC,004805,A,3000.1874,N,14508.9643,W,014.2,270.2,070111,012.8,E*69
110107,004813,$GPRMC,004810,A,3000.1873,N,14508.9875,W,014.6,267.4,070111,012.8,E*65
110107,004818,$GPRMC,004815,A,3000.1895,N,14509.0116,W,014.8,281.8,070111,012.8,E*66
110107,004823,$GPRMC,004820,A,3000.1889,N,14509.0348,W,014.7,264.8,070111,012.8,E*60
110107,004828,$GPRMC,004825,A,3000.1916,N,14509.0590,W,015.2,283.9,070111,012.8,E*6D
110107,004833,$GPRMC,004830,A,3000.1914,N,14509.0825,W,014.9,264.4,070111,012.8,E*66
110107,004838,$GPRMC,004835,A,3000.1930,N,14509.1062,W,014.8,277.8,070111,012.8,E*60
110107,004843,$GPRMC,004840,A,3000.1932,N,14509.1294,W,014.6,269.9,070111,012.8,E*6B
110107,004848,$GPRMC,004845,A,3000.1940,N,14509.1529,W,014.8,271.2,070111,012.8,E*66
110107,004853,$GPRMC,004850,A,3000.1960,N,14509.1765,W,014.6,274.8,070111,012.8,E*6B
110107,004858,$GPRMC,004855,A,3000.1953,N,14509.1997,W,015.0,267.7,070111,012.8,E*67
110107,004903,$GPRMC,004900,A,3000.1963,N,14509.2237,W,015.1,277.1,070111,012.8,E*61
110107,004908,$GPRMC,004905,A,3000.1970,N,14509.2468,W,014.5,263.6,070111,012.8,E*6D
110107,004913,$GPRMC,004910,A,3000.1976,N,14509.2712,W,015.3,278.4,070111,012.8,E*6E
110107,004918,$GPRMC,004915,A,3000.1975,N,14509.2945,W,014.2,264.8,070111,012.8,E*65
110107,004923,$GPRMC,004920,A,3000.1979,N,14509.3182,W,014.4,277.8,070111,012.8,E*69
110107,004928,$GPRMC,004925,A,3000.1990,N,14509.3418,W,014.4,268.8,070111,012.8,E*63
110107,004933,$GPRMC,004930,A,3000.1968,N,14509.3654,W,017.2,273.0,070111,012.8,E*6D
110107,004938,$GPRMC,004935,A,3000.1991,N,14509.3899,W,014.1,266.9,070111,012.8,E*6C
110107,004943,$GPRMC,004940,A,3000.1980,N,14509.4139,W,016.1,277.8,070111,012.8,E*69
110107,004948,$GPRMC,004945,A,3000.1989,N,14509.4373,W,014.8,263.4,070111,012.8,E*6B
110107,004953,$GPRMC,004950,A,3000.1996,N,14509.4613,W,014.2,274.4,070111,012.8,E*6E
110107,004958,$GPRMC,004955,A,3000.1991,N,14509.4838,W,015.1,269.6,070111,012.8,E*67
110107,005003,$GPRMC,005000,A,3000.2008,N,14509.5077,W,014.4,270.5,070111,012.8,E*68
110107,005008,$GPRMC,005005,A,3000.2002,N,14509.5314,W,015.1,272.9,070111,012.8,E*6B
110107,005013,$GPRMC,005010,A,3000.2009,N,14509.5545,W,014.5,269.5,070111,012.8,E*65
110107,005018,$GPRMC,005015,A,3000.2007,N,14509.5786,W,015.0,270.9,070111,012.8,E*63
110107,005023,$GPRMC,005020,A,3000.2012,N,14509.6023,W,015.1,266.9,070111,012.8,E*6C
110107,005028,$GPRMC,005025,A,3000.2016,N,14509.6246,W,014.5,278.5,070111,012.8,E*6A
110107,005033,$GPRMC,005030,A,3000.2007,N,14509.6494,W,015.0,269.5,070111,012.8,E*63
110107,005038,$GPRMC,005035,A,3000.2031,N,14509.6720,W,014.3,270.8,070111,012.8,E*68
110107,005043,$GPRMC,005040,A,3000.2031,N,14509.6945,W,013.9,278.3,070111,012.8,E*69
110107,005048,$GPRMC,005045,A,3000.2046,N,14509.7179,W,014.6,270.2,070111,012.8,E*6B
110107,005053,$GPRMC,005050,A,3000.2050,N,14509.7408,W,014.3,273.8,070111,012.8,E*67
110107,005058,$GPRMC,005055,A,3000.2064,N,14509.7642,W,014.4,270.7,070111,012.8,E*62
110107,005103,$GPRMC,005100,A,3000.2054,N,14509.7865,W,014.1,272.7,070111,012.8,E*6C
110107,005108,$GPRMC,005105,A,3000.2078,N,14509.8092,W,014.2,273.3,070111,012.8,E*6E
110107,005113,$GPRMC,005110,A,3000.2072,N,14509.8326,W,014.5,264.1,070111,012.8,E*6F
110107,005118,$GPRMC,005115,A,3000.2072,N,14509.8563,W,015.7,278.1,070111,012.8,E*63
110107,005123,$GPRMC,005120,A,3000.2086,N,14509.8803,W,014.4,265.1,070111,012.8,E*6B
110107,005128,$GPRMC,005125,A,3000.2072,N,14509.9032,W,014.7,274.0,070111,012.8,E*6C
110107,005133,$GPRMC,005130,A,3000.2091,N,14509.9271,W,014.4,265.6,070111,012.8,E*65
110107,005138,$GPRMC,005135,A,3000.2077,N,14509.9498,W,012.8,272.5,070111,012.8,E*66
110107,005143,$GPRMC,005140,A,3000.2084,N,14509.9734,W,015.3,270.7,070111,012.8,E*61
110107,005148,$GPRMC,005145,A,3000.2089,N,14509.9974,W,014.4,274.7,070111,012.8,E*61
110107,005153,$GPRMC,005150,A,3000.2091,N,14510.0199,W,014.6,266.9,070111,012.8,E*69
110107,005158,$GPRMC,005155,A,3000.2097,N,14510.0436,W,014.8,276.1,070111,012.8,E*6D
110107,005203,$GPRMC,005200,A,3000.2103,N,14510.0673,W,014.6,267.8,070111,012.8,E*66
110107,005208,$GPRMC,005205,A,3000.2092,N,14510.0905,W,015.3,268.4,070111,012.8,E*63
110107,005213,$GPRMC,005210,A,3000.2112,N,14510.1137,W,015.0,271.1,070111,012.8,E*68
110107,005218,$GPRMC,005215,A,3000.2097,N,14510.1375,W,014.6,268.6,070111,012.8,E*6D
110107,005223,$GPRMC,005220,A,3000.2094,N,14510.1606,W,015.1,270.8,070111,012.8,E*68
110107,005228,$GPRMC,005225,A,3000.2100,N,14510.1853,W,015.0,271.1,070111,012.8,E*66
110107,005233,$GPRMC,005230,A,3000.2099,N,14510.2089,W,014.5,267.4,070111,012.8,E*69
110107,005238,$GPRMC,005235,A,3000.2101,N,14510.2329,W,016.5,274.5,070111,012.8,E*64
110107,005243,$GPRMC,005240,A,3000.2123,N,14510.2567,W,014.3,271.8,070111,012.8,E*66
110107,005248,$GPRMC,005245,A,3000.2110,N,14510.2781,W,014.6,263.3,070111,012.8,E*64
110107,005253,$GPRMC,005250,A,3000.2133,N,14510.3009,W,014.7,283.0,070111,012.8,E*6B
110107,005258,$GPRMC,005255,A,3000.2133,N,14510.3234,W,013.9,266.6,070111,012.8,E*66
110107,005303,$GPRMC,005300,A,3000.2146,N,14510.3454,W,013.6,272.4,070111,012.8,E*6D
110107,005308,$GPRMC,005305,A,3000.2142,N,14510.3681,W,014.4,272.7,070111,012.8,E*60
110107,005313,$GPRMC,005310,A,3000.2153,N,14510.3910,W,014.2,271.3,070111,012.8,E*62
110107,005318,$GPRMC,005315,A,3000.2147,N,14510.4132,W,014.3,267.9,070111,012.8,E*61
110107,005323,$GPRMC,005320,A,3000.2161,N,14510.4370,W,014.5,275.1,070111,012.8,E*6A
110107,005328,$GPRMC,005325,A,3000.2160,N,14510.4598,W,015.2,264.4,070111,012.8,E*6D
110107,005333,$GPRMC,005330,A,3000.2168,N,14510.4834,W,015.1,280.8,070111,012.8,E*6F
110107,005338,$GPRMC,005335,A,3000.2180,N,14510.5065,W,014.2,263.7,070111,012.8,E*61
110107,005343,$GPRMC,005340,A,3000.2179,N,14510.5292,W,014.9,286.7,070111,012.8,E*6F
110107,005348,$GPRMC,005345,A,3000.2212,N,14510.5525,W,014.4,264.0,070111,012.8,E*69
110107,005353,$GPRMC,005350,A,3000.2187,N,14510.5755,W,014.7,274.2,070111,012.8,E*67
110107,005358,$GPRMC,005355,A,3000.2218,N,14510.5991,W,014.4,268.9,070111,012.8,E*64
110107,005403,$GPRMC,005400,A,3000.2216,N,14510.6222,W,014.9,273.6,070111,012.8,E*65
110107,005408,$GPRMC,005405,A,3000.2219,N,14510.6452,W,014.1,277.4,070111,012.8,E*60
110107,005413,$GPRMC,005410,A,3000.2239,N,14510.6685,W,014.9,267.5,070111,012.8,E*66
110107,005418,$GPRMC,005415,A,3000.2237,N,14510.6912,W,014.3,273.2,070111,012.8,E*64
110107,005423,$GPRMC,005420,A,3000.2238,N,14510.7145,W,014.1,268.4,070111,012.8,E*68
110107,005428,$GPRMC,005425,A,3000.2245,N,14510.7380,W,015.3,276.1,070111,012.8,E*65
110107,005433,$GPRMC,005430,A,3000.2238,N,14510.7609,W,013.9,260.7,070111,012.8,E*62
110107,005438,$GPRMC,005435,A,3000.2239,N,14510.7842,W,015.5,280.5,070111,012.8,E*61
110107,005443,$GPRMC,005440,A,3000.2257,N,14510.8076,W,014.6,265.2,070111,012.8,E*65
110107,005448,$GPRMC,005445,A,3000.2236,N,14510.8303,W,014.6,266.5,070111,012.8,E*62
110107,005453,$GPRMC,005450,A,3000.2256,N,14510.8536,W,014.6,276.2,070111,012.8,E*66
110107,005458,$GPRMC,005455,A,3000.2237,N,14510.8767,W,014.7,264.6,070111,012.8,E*64
110107,005507,$GPRMC,005500,A,3000.2245,N,14510.8999,W,014.6,271.2,070111,012.8,E*6E
110107,005508,$GPRMC,005505,A,3000.2235,N,14510.9226,W,014.6,271.9,070111,012.8,E*69
110107,005513,$GPRMC,005510,A,3000.2247,N,14510.9464,W,014.4,266.0,070111,012.8,E*65
110107,005518,$GPRMC,005515,A,3000.2239,N,14510.9704,W,015.3,278.4,070111,012.8,E*61
110107,005523,$GPRMC,005520,A,3000.2258,N,14510.9942,W,014.6,265.7,070111,012.8,E*67
110107,005528,$GPRMC,005525,A,3000.2243,N,14511.0180,W,015.3,276.2,070111,012.8,E*65
110107,005533,$GPRMC,005530,A,3000.2271,N,14511.0418,W,014.6,270.2,070111,012.8,E*66
110107,005538,$GPRMC,005535,A,3000.2263,N,14511.0652,W,014.8,270.2,070111,012.8,E*62
110107,005543,$GPRMC,005540,A,3000.2276,N,14511.0890,W,014.7,275.6,070111,012.8,E*6A
110107,005548,$GPRMC,005545,A,3000.2281,N,14511.1131,W,015.0,263.5,070111,012.8,E*66
110107,005553,$GPRMC,005550,A,3000.2300,N,14511.1365,W,015.5,278.7,070111,012.8,E*64
110107,005558,$GPRMC,005555,A,3000.2288,N,14511.1609,W,014.6,269.9,070111,012.8,E*63
110107,005603,$GPRMC,005600,A,3000.2305,N,14511.1846,W,014.8,264.6,070111,012.8,E*6D
110107,005608,$GPRMC,005605,A,3000.2298,N,14511.2077,W,014.8,272.8,070111,012.8,E*6D
110107,005613,$GPRMC,005610,A,3000.2306,N,14511.2310,W,014.5,273.4,070111,012.8,E*6D
110107,005618,$GPRMC,005615,A,3000.2323,N,14511.2546,W,014.7,267.9,070111,012.8,E*60
110107,005623,$GPRMC,005620,A,3000.2302,N,14511.2783,W,015.7,276.0,070111,012.8,E*66
110107,005628,$GPRMC,005625,A,3000.2333,N,14511.3023,W,014.7,266.1,070111,012.8,E*6C
110107,005633,$GPRMC,005630,A,3000.2325,N,14511.3254,W,014.0,272.5,070111,012.8,E*6B
110107,005638,$GPRMC,005635,A,3000.2327,N,14511.3486,W,015.1,269.6,070111,012.8,E*6C
110107,005643,$GPRMC,005640,A,3000.2340,N,14511.3725,W,014.6,275.8,070111,012.8,E*60
110107,005648,$GPRMC,005645,A,3000.2327,N,14511.3954,W,014.5,265.6,070111,012.8,E*60
110107,005653,$GPRMC,005650,A,3000.2347,N,14511.4192,W,015.3,274.0,070111,012.8,E*66
110107,005658,$GPRMC,005655,A,3000.2339,N,14511.4423,W,014.4,266.3,070111,012.8,E*63
110107,005703,$GPRMC,005700,A,3000.2341,N,14511.4655,W,014.3,271.5,070111,012.8,E*69
110107,005708,$GPRMC,005705,A,3000.2332,N,14511.4891,W,014.8,266.8,070111,012.8,E*6E
110107,005713,$GPRMC,005710,A,3000.2337,N,14511.5125,W,014.1,271.2,070111,012.8,E*6D
110107,005718,$GPRMC,005715,A,3000.2327,N,14511.5355,W,015.0,268.2,070111,012.8,E*64
110107,005723,$GPRMC,005720,A,3000.2334,N,14511.5586,W,014.5,269.9,070111,012.8,E*66
110107,005728,$GPRMC,005725,A,3000.2319,N,14511.5823,W,014.7,270.1,070111,012.8,E*6C
110107,005733,$GPRMC,005730,A,3000.2328,N,14511.6053,W,014.6,266.5,070111,012.8,E*64
110107,005738,$GPRMC,005735,A,3000.2323,N,14511.6291,W,014.9,278.7,070111,012.8,E*64
110107,005743,$GPRMC,005740,A,3000.2326,N,14511.6529,W,015.3,262.3,070111,012.8,E*63
110107,005748,$GPRMC,005745,A,3000.2330,N,14511.6769,W,015.3,281.3,070111,012.8,E*6A
110107,005753,$GPRMC,005750,A,3000.2337,N,14511.7006,W,014.5,263.0,070111,012.8,E*6E
110107,005758,$GPRMC,005755,A,3000.2338,N,14511.7246,W,015.2,278.5,070111,012.8,E*6B
110107,005803,$GPRMC,005800,A,3000.2336,N,14511.7487,W,014.7,269.9,070111,012.8,E*69
110107,005808,$GPRMC,005805,A,3000.2342,N,14511.7727,W,015.1,265.5,070111,012.8,E*61
110107,005813,$GPRMC,005810,A,3000.2339,N,14511.7974,W,016.2,280.5,070111,012.8,E*6A
110107,005818,$GPRMC,005815,A,3000.2357,N,14511.8221,W,015.7,260.7,070111,012.8,E*69
110107,005823,$GPRMC,005820,A,3000.2362,N,14511.8457,W,015.7,279.4,070111,012.8,E*65
110107,005828,$GPRMC,005825,A,3000.2369,N,14511.8702,W,014.7,267.1,070111,012.8,E*63
110107,005833,$GPRMC,005830,A,3000.2370,N,14511.8938,W,015.1,270.8,070111,012.8,E*60
110107,005838,$GPRMC,005835,A,3000.2386,N,14511.9178,W,015.2,271.7,070111,012.8,E*6C
110107,005843,$GPRMC,005840,A,3000.2384,N,14511.9423,W,015.2,271.4,070111,012.8,E*64
